{"metadata":{"projectName":"test-simulation","generatedAt":"2025-10-20T02:32:27.411Z","simulationVersion":"2.0","startTime":"07:00","endTime":"07:30","startTimeSeconds":25200,"endTimeSeconds":27000,"totalDurationSeconds":1800,"vehicleCount":3,"demandCount":5,"completedDemands":3,"rejectedDemands":1,"averageWaitTime":268.3333333333333,"averageServiceTime":600,"vehicleUtilizationRate":0.539074074074074},"configuration":{"waitTimeLimit":10,"operatingTime":{"start":"07:00","end":"07:30"},"jobTypes":{}},"vehicles":[{"id":"vehicle_001","name":"Vehicle_1","initialLocation":[126.978,37.5665],"job_type":"call","statistics":{"total_jobs":1,"total_distance":0,"total_service_time":0,"idle_time":798,"moving_time":402,"working_time":600},"timeline":[{"timestamp":25200,"type":"simulation_start","state":"idle","location":[126.978,37.5665],"force":true},{"timestamp":25500,"type":"demand_assigned","state":"moving","location":[126.978,37.5665],"demandId":"test_001","targetLocation":[126.979,37.568],"estimatedArrival":25596,"routeId":"route_001"},{"timestamp":25500,"type":"position_updated","state":"moving","location":[126.978,37.5665]},{"timestamp":25510,"type":"position_updated","state":"moving","location":[126.97768865034996,37.567040095119495]},{"timestamp":25520,"type":"position_updated","state":"moving","location":[126.97754769099399,37.567039398227095]},{"timestamp":25530,"type":"position_updated","state":"moving","location":[126.977406731638,37.56703870133469]},{"timestamp":25540,"type":"position_updated","state":"moving","location":[126.97726577228201,37.56703800444229]},{"timestamp":25550,"type":"position_updated","state":"moving","location":[126.97724380020595,37.56731214314128]},{"timestamp":25560,"type":"position_updated","state":"moving","location":[126.97723392880079,37.567616785619755]},{"timestamp":25570,"type":"position_updated","state":"moving","location":[126.97722405739562,37.56792142809823]},{"timestamp":25580,"type":"position_updated","state":"moving","location":[126.97775370988614,37.56813520953145]},{"timestamp":25590,"type":"position_updated","state":"moving","location":[126.97852473987689,37.56813991176573]},{"timestamp":25596,"type":"arrived_at_demand","state":"working","location":[126.979,37.568],"demandId":"test_001","serviceTime":600,"estimatedCompletion":26196},{"timestamp":26196,"type":"work_completed","state":"idle","location":[126.979,37.568],"demandId":"test_001"},{"timestamp":26400,"type":"demand_assigned","state":"moving","location":[126.979,37.568],"demandId":"test_004","targetLocation":[126.982,37.569],"estimatedArrival":26706,"routeId":"route_004"},{"timestamp":26400,"type":"position_updated","state":"moving","location":[126.979,37.568]},{"timestamp":26410,"type":"position_updated","state":"moving","location":[126.97904291731284,37.5681317054457]},{"timestamp":26420,"type":"position_updated","state":"moving","location":[126.97909268131241,37.568131127702095]},{"timestamp":26430,"type":"position_updated","state":"moving","location":[126.97914244531196,37.56813054995849]},{"timestamp":26440,"type":"position_updated","state":"moving","location":[126.97919220931152,37.568129972214884]},{"timestamp":26450,"type":"position_updated","state":"moving","location":[126.97923281804265,37.568149461943364]},{"timestamp":26460,"type":"position_updated","state":"moving","location":[126.97923680570003,37.568249221560166]},{"timestamp":26470,"type":"position_updated","state":"moving","location":[126.97924057480448,37.56834898777149]},{"timestamp":26480,"type":"position_updated","state":"moving","location":[126.97924260914186,37.56844880632702]},{"timestamp":26490,"type":"position_updated","state":"moving","location":[126.97924464347925,37.568548624882546]},{"timestamp":26500,"type":"position_updated","state":"moving","location":[126.97924648479238,37.56864844688711]},{"timestamp":26510,"type":"position_updated","state":"moving","location":[126.9792480178117,37.568748274400384]},{"timestamp":26520,"type":"position_updated","state":"moving","location":[126.97924955083101,37.568848101913666]},{"timestamp":26530,"type":"position_updated","state":"moving","location":[126.97925108385033,37.56894792942695]},{"timestamp":26540,"type":"position_updated","state":"moving","location":[126.97925690103708,37.569047571241505]},{"timestamp":26550,"type":"position_updated","state":"moving","location":[126.97926469608895,37.569147105726]},{"timestamp":26560,"type":"position_updated","state":"moving","location":[126.97927018100157,37.56924677331237]},{"timestamp":26570,"type":"position_updated","state":"moving","location":[126.97927420195794,37.569346531467495]},{"timestamp":26580,"type":"position_updated","state":"moving","location":[126.9792782987617,37.56944628666162]},{"timestamp":26590,"type":"position_updated","state":"moving","location":[126.97928239556546,37.569546041855745]},{"timestamp":26600,"type":"position_updated","state":"moving","location":[126.97928649236923,37.569645797049866]},{"timestamp":26610,"type":"position_updated","state":"moving","location":[126.9792907664664,37.56974554475162]},{"timestamp":26620,"type":"position_updated","state":"moving","location":[126.97929510049399,37.56984528992073]},{"timestamp":26630,"type":"position_updated","state":"moving","location":[126.97930133812594,37.56994493031908]},{"timestamp":26640,"type":"position_updated","state":"moving","location":[126.97930832094384,37.57004452510588]},{"timestamp":26650,"type":"position_updated","state":"moving","location":[126.97973980574677,37.57009808859099]},{"timestamp":26660,"type":"position_updated","state":"moving","location":[126.98080818692358,37.57009786597651]},{"timestamp":26670,"type":"position_updated","state":"moving","location":[126.9818765555013,37.570104620752154]},{"timestamp":26680,"type":"position_updated","state":"moving","location":[126.98267957032166,37.56994533418908]},{"timestamp":26690,"type":"position_updated","state":"moving","location":[126.98273346827918,37.56930972052796]},{"timestamp":26700,"type":"position_updated","state":"moving","location":[126.98234004423907,37.56906001314576]},{"timestamp":26706,"type":"arrived_at_demand","state":"working","location":[126.982,37.569],"demandId":"test_004","serviceTime":600,"estimatedCompletion":27306}]},{"id":"vehicle_002","name":"Vehicle_2","initialLocation":[126.98,37.57],"job_type":"call","statistics":{"total_jobs":1,"total_distance":0,"total_service_time":0,"idle_time":698,"moving_time":502,"working_time":600},"timeline":[{"timestamp":25200,"type":"simulation_start","state":"idle","location":[126.98,37.57],"force":true},{"timestamp":25800,"type":"demand_assigned","state":"moving","location":[126.98,37.57],"demandId":"test_002","targetLocation":[126.981,37.572],"estimatedArrival":26302,"routeId":"route_002"},{"timestamp":25800,"type":"position_updated","state":"moving","location":[126.98,37.57]},{"timestamp":25810,"type":"position_updated","state":"moving","location":[126.9799025689327,37.56978229928037]},{"timestamp":25820,"type":"position_updated","state":"moving","location":[126.9798973822236,37.56958255470467]},{"timestamp":25830,"type":"position_updated","state":"moving","location":[126.97988262553892,37.569383268021156]},{"timestamp":25840,"type":"position_updated","state":"moving","location":[126.97983331976768,37.569226402063606]},{"timestamp":25850,"type":"position_updated","state":"moving","location":[126.97964581765021,37.56923921900991]},{"timestamp":25860,"type":"position_updated","state":"moving","location":[126.97945840200887,37.569253189261794]},{"timestamp":25870,"type":"position_updated","state":"moving","location":[126.97927087368929,37.56926548973234]},{"timestamp":25880,"type":"position_updated","state":"moving","location":[126.97927579711461,37.56938537276241]},{"timestamp":25890,"type":"position_updated","state":"moving","location":[126.97928072053993,37.56950525579248]},{"timestamp":25900,"type":"position_updated","state":"moving","location":[126.97928564396526,37.56962513882255]},{"timestamp":25910,"type":"position_updated","state":"moving","location":[126.9792907434227,37.569745014413556]},{"timestamp":25920,"type":"position_updated","state":"moving","location":[126.97929600374664,37.56986488254434]},{"timestamp":25930,"type":"position_updated","state":"moving","location":[126.97930411669947,37.569984591869925]},{"timestamp":25940,"type":"position_updated","state":"moving","location":[126.97931251280609,37.570104281829444]},{"timestamp":25950,"type":"position_updated","state":"moving","location":[126.97931890820503,37.57020825240782]},{"timestamp":25960,"type":"position_updated","state":"moving","location":[126.97932323030817,37.570312272051574]},{"timestamp":25970,"type":"position_updated","state":"moving","location":[126.97932176032532,37.570416428767366]},{"timestamp":25980,"type":"position_updated","state":"moving","location":[126.97932033048845,37.570520586028856]},{"timestamp":25990,"type":"position_updated","state":"moving","location":[126.97931896891919,37.57062474421828]},{"timestamp":26000,"type":"position_updated","state":"moving","location":[126.97931760734993,37.5707289024077]},{"timestamp":26010,"type":"position_updated","state":"moving","location":[126.97931624578067,37.57083306059713]},{"timestamp":26020,"type":"position_updated","state":"moving","location":[126.9793148842114,37.570937218786554]},{"timestamp":26030,"type":"position_updated","state":"moving","location":[126.97931352264214,37.57104137697598]},{"timestamp":26040,"type":"position_updated","state":"moving","location":[126.97931198926537,37.57114553232194]},{"timestamp":26050,"type":"position_updated","state":"moving","location":[126.9793099033388,37.57124967852305]},{"timestamp":26060,"type":"position_updated","state":"moving","location":[126.97930593718776,37.57135376826837]},{"timestamp":26070,"type":"position_updated","state":"moving","location":[126.97930026257298,37.571457727758556]},{"timestamp":26080,"type":"position_updated","state":"moving","location":[126.97929623839009,37.57156181498315]},{"timestamp":26090,"type":"position_updated","state":"moving","location":[126.97929155434436,37.57166587670527]},{"timestamp":26100,"type":"position_updated","state":"moving","location":[126.97928687029864,37.57176993842739]},{"timestamp":26110,"type":"position_updated","state":"moving","location":[126.9792821862529,37.571874000149506]},{"timestamp":26120,"type":"position_updated","state":"moving","location":[126.97927750220717,37.571978061871626]},{"timestamp":26130,"type":"position_updated","state":"moving","location":[126.97927281816145,37.57208212359375]},{"timestamp":26140,"type":"position_updated","state":"moving","location":[126.97926813411571,37.57218618531587]},{"timestamp":26150,"type":"position_updated","state":"moving","location":[126.97926345007,37.57229024703799]},{"timestamp":26160,"type":"position_updated","state":"moving","location":[126.97925929959834,37.5723943310374]},{"timestamp":26170,"type":"position_updated","state":"moving","location":[126.97931769250468,37.57246079801332]},{"timestamp":26180,"type":"position_updated","state":"moving","location":[126.97946968454056,37.57247083043836]},{"timestamp":26190,"type":"position_updated","state":"moving","location":[126.97962167657644,37.57248086286341]},{"timestamp":26200,"type":"position_updated","state":"moving","location":[126.97977366861232,37.57249089528845]},{"timestamp":26210,"type":"position_updated","state":"moving","location":[126.9799216461934,37.57246323821584]},{"timestamp":26220,"type":"position_updated","state":"moving","location":[126.98006181758662,37.57242656410714]},{"timestamp":26230,"type":"position_updated","state":"moving","location":[126.98020437463417,37.57243994906474]},{"timestamp":26240,"type":"position_updated","state":"moving","location":[126.98035782744778,37.572422126360514]},{"timestamp":26250,"type":"position_updated","state":"moving","location":[126.98050897648146,37.572390499756764]},{"timestamp":26260,"type":"position_updated","state":"moving","location":[126.98066003356534,37.572358140232055]},{"timestamp":26270,"type":"position_updated","state":"moving","location":[126.98081136602819,37.572327080929966]},{"timestamp":26280,"type":"position_updated","state":"moving","location":[126.98096269849104,37.57229602162788]},{"timestamp":26290,"type":"position_updated","state":"moving","location":[126.98111403095389,37.5722649623258]},{"timestamp":26300,"type":"position_updated","state":"moving","location":[126.98117386538874,37.57209491525707]},{"timestamp":26302,"type":"arrived_at_demand","state":"working","location":[126.981,37.572],"demandId":"test_002","serviceTime":600,"estimatedCompletion":26902},{"timestamp":26902,"type":"work_completed","state":"idle","location":[126.981,37.572],"demandId":"test_002"}]},{"id":"vehicle_003","name":"Vehicle_3","initialLocation":[126.985,37.565],"job_type":"call","statistics":{"total_jobs":1,"total_distance":0,"total_service_time":0,"idle_time":993,"moving_time":207,"working_time":600},"timeline":[{"timestamp":25200,"type":"simulation_start","state":"idle","location":[126.985,37.565],"force":true},{"timestamp":26100,"type":"demand_assigned","state":"moving","location":[126.985,37.565],"demandId":"test_003","targetLocation":[126.986,37.566],"estimatedArrival":26307,"routeId":"route_003"},{"timestamp":26100,"type":"position_updated","state":"moving","location":[126.985,37.565]},{"timestamp":26110,"type":"position_updated","state":"moving","location":[126.98496422269129,37.56422749610973]},{"timestamp":26120,"type":"position_updated","state":"moving","location":[126.98517420139608,37.56386845742261]},{"timestamp":26130,"type":"position_updated","state":"moving","location":[126.98525939682776,37.56387848172468]},{"timestamp":26140,"type":"position_updated","state":"moving","location":[126.98534459225944,37.56388850602675]},{"timestamp":26150,"type":"position_updated","state":"moving","location":[126.98542802004037,37.56390764910681]},{"timestamp":26160,"type":"position_updated","state":"moving","location":[126.98551079023197,37.56393018449218]},{"timestamp":26170,"type":"position_updated","state":"moving","location":[126.98559356042358,37.56395271987755]},{"timestamp":26180,"type":"position_updated","state":"moving","location":[126.98567633061518,37.56397525526292]},{"timestamp":26190,"type":"position_updated","state":"moving","location":[126.98575910080679,37.56399779064829]},{"timestamp":26200,"type":"position_updated","state":"moving","location":[126.9858418709984,37.56402032603365]},{"timestamp":26210,"type":"position_updated","state":"moving","location":[126.98592460384809,37.56404299719505]},{"timestamp":26220,"type":"position_updated","state":"moving","location":[126.98600725716584,37.564065957536464]},{"timestamp":26230,"type":"position_updated","state":"moving","location":[126.98608991048359,37.564088917877875]},{"timestamp":26240,"type":"position_updated","state":"moving","location":[126.98601091488983,37.564306769773765]},{"timestamp":26250,"type":"position_updated","state":"moving","location":[126.98587217173247,37.56452590085882]},{"timestamp":26260,"type":"position_updated","state":"moving","location":[126.98581804345818,37.56476876493365]},{"timestamp":26270,"type":"position_updated","state":"moving","location":[126.98588415877728,37.565019568999105]},{"timestamp":26280,"type":"position_updated","state":"moving","location":[126.98590464295185,37.565277096997875]},{"timestamp":26290,"type":"position_updated","state":"moving","location":[126.98589745021297,37.56553636677889]},{"timestamp":26300,"type":"position_updated","state":"moving","location":[126.98588968715161,37.56579562273262]},{"timestamp":26307,"type":"arrived_at_demand","state":"working","location":[126.986,37.566],"demandId":"test_003","serviceTime":600,"estimatedCompletion":26907},{"timestamp":26907,"type":"work_completed","state":"idle","location":[126.986,37.566],"demandId":"test_003"}]}],"routes":[{"id":"route_001","vehicleId":"vehicle_001","demandId":"test_001","type":"to_demand","startTime":25500,"endTime":25596,"duration":96,"distance":354,"startLocation":[126.978,37.5665],"endLocation":[126.979,37.568],"geometry":{"type":"LineString","coordinates":[[126.97813493437309,37.566854638580644],[126.978104380737,37.566885190035435],[126.97802938560568,37.56695462506031],[126.97798216674308,37.566987953670946],[126.97790439518803,37.56701850427867],[126.97781551377035,37.56704072232266],[126.97781551377035,37.56704072232266],[126.97725167634641,37.567037934753046],[126.97725167634641,37.567037934753046],[126.9772461155568,37.56724068885432],[126.97722109597407,37.56801282084177],[126.97722109597407,37.56801282084177],[126.97757661692604,37.56809059595421],[126.97794047005874,37.56818225849026],[126.97802935068995,37.56818781499439],[126.97808490126138,37.56818503853617],[126.97829321671041,37.568146157906114],[126.97848208854329,37.568140606384915],[126.97899315331328,37.56813228318931]]},"features":[{"geometry":{"type":"Point","coordinates":[126.97813493437309,37.566854638580644]},"properties":{"time":0,"distance":0}},{"geometry":{"type":"LineString","coordinates":[[126.97813493437309,37.566854638580644],[126.978104380737,37.566885190035435],[126.97802938560568,37.56695462506031],[126.97798216674308,37.566987953670946],[126.97790439518803,37.56701850427867],[126.97781551377035,37.56704072232266]]},"properties":{"time":1,"distance":36}},{"geometry":{"type":"LineString","coordinates":[[126.97781551377035,37.56704072232266],[126.97725167634641,37.567037934753046]]},"properties":{"time":40,"distance":50}},{"geometry":{"type":"Point","coordinates":[126.97725167634641,37.567037934753046]},"properties":{"time":0,"distance":0}},{"geometry":{"type":"LineString","coordinates":[[126.97725167634641,37.567037934753046],[126.9772461155568,37.56724068885432],[126.97722109597407,37.56801282084177]]},"properties":{"time":32,"distance":108}},{"geometry":{"type":"Point","coordinates":[126.97722109597407,37.56801282084177]},"properties":{"time":0,"distance":0}},{"geometry":{"type":"LineString","coordinates":[[126.97722109597407,37.56801282084177],[126.97757661692604,37.56809059595421],[126.97794047005874,37.56818225849026],[126.97802935068995,37.56818781499439],[126.97808490126138,37.56818503853617],[126.97829321671041,37.568146157906114],[126.97848208854329,37.568140606384915],[126.97899315331328,37.56813228318931]]},"properties":{"time":23,"distance":160}},{"geometry":{"type":"Point","coordinates":[126.97899315331328,37.56813228318931]},"properties":{"time":0,"distance":0}}]},{"id":"route_002","vehicleId":"vehicle_002","demandId":"test_002","type":"to_demand","startTime":25800,"endTime":26302,"duration":502,"distance":706,"startLocation":[126.98,37.57],"endLocation":[126.981,37.572],"geometry":{"type":"LineString","coordinates":[[126.97990690653911,37.56998208448287],[126.97989858481947,37.569598795570926],[126.97987082019117,37.56922383867435],[126.97987082019117,37.56922383867435],[126.9795458491791,37.569246052482214],[126.97940975015717,37.56925715985959],[126.97927087368929,37.56926548973234],[126.97927087368929,37.56926548973234],[126.97928752735412,37.56967099843226],[126.97929585450106,37.56986264296294],[126.97930140719075,37.56994596670658],[126.97931251280609,37.570104281829444],[126.97931251280609,37.570104281829444],[126.97932361779213,37.57028481659066],[126.97932083468304,37.57048201583144],[126.97931248401827,37.57112083028499],[126.97930970256076,37.57125970297487],[126.97930414357859,37.5713985756149],[126.97930136534603,37.571423572658205],[126.97929858538298,37.57150967370696],[126.97926245483,37.57231235749389],[126.97925689569033,37.5724567850433],[126.97925689569033,37.5724567850433],[126.9798040670195,37.572492901773465],[126.9798040670195,37.572492901773465],[126.97988739338768,37.57247068363027],[126.97995127684747,37.572456797502596],[126.97995127684747,37.572456797502596],[126.97996238718198,37.57244846533757],[126.97997627511978,37.572437355767605],[126.97999294050355,37.57242902370226],[126.98000682820536,37.57242624649666],[126.98002627095643,37.572423469390735],[126.98004293610421,37.57242346968976],[126.98005960117332,37.57242624744358],[126.98007904376708,37.572429025247246],[126.98008182113438,37.57243458020666],[126.98009015370826,37.57243458035617],[126.98009570860019,37.57244013536543],[126.98009848604616,37.57244291287006],[126.9801068184627,37.572448467929156],[126.9801123734333,37.57245124548363],[126.9801123734333,37.57245124548363],[126.98027069288786,37.57243180614088],[126.9803706840892,37.57242069811591],[126.9806123302267,37.57236793081087],[126.98114006297467,37.57225961954354],[126.98123449944151,37.57223740159977],[126.98123449944151,37.57223740159977],[126.98122061354904,37.57217629734512],[126.98120117205663,37.57213463517434],[126.98117062054435,37.57209019534942],[126.98108174321744,37.57196798574363]]},"features":[{"geometry":{"type":"Point","coordinates":[126.97990690653911,37.56998208448287]},"properties":{"time":0,"distance":0}},{"geometry":{"type":"LineString","coordinates":[[126.97990690653911,37.56998208448287],[126.97989858481947,37.569598795570926],[126.97987082019117,37.56922383867435]]},"properties":{"time":38,"distance":84}},{"geometry":{"type":"Point","coordinates":[126.97987082019117,37.56922383867435]},"properties":{"time":0,"distance":0}},{"geometry":{"type":"LineString","coordinates":[[126.97987082019117,37.56922383867435],[126.9795458491791,37.569246052482214],[126.97940975015717,37.56925715985959],[126.97927087368929,37.56926548973234]]},"properties":{"time":32,"distance":53}},{"geometry":{"type":"Point","coordinates":[126.97927087368929,37.56926548973234]},"properties":{"time":0,"distance":0}},{"geometry":{"type":"LineString","coordinates":[[126.97927087368929,37.56926548973234],[126.97928752735412,37.56967099843226],[126.97929585450106,37.56986264296294],[126.97930140719075,37.56994596670658],[126.97931251280609,37.570104281829444]]},"properties":{"time":70,"distance":94}},{"geometry":{"type":"LineString","coordinates":[[126.97931251280609,37.570104281829444],[126.97932361779213,37.57028481659066],[126.97932083468304,37.57048201583144],[126.97931248401827,37.57112083028499],[126.97930970256076,37.57125970297487],[126.97930414357859,37.5713985756149],[126.97930136534603,37.571423572658205],[126.97929858538298,37.57150967370696],[126.97926245483,37.57231235749389],[126.97925689569033,37.5724567850433]]},"properties":{"time":226,"distance":261}},{"geometry":{"type":"Point","coordinates":[126.97925689569033,37.5724567850433]},"properties":{"time":0,"distance":0}},{"geometry":{"type":"LineString","coordinates":[[126.97925689569033,37.5724567850433],[126.9798040670195,37.572492901773465]]},"properties":{"time":36,"distance":48}},{"geometry":{"type":"Point","coordinates":[126.9798040670195,37.572492901773465]},"properties":{"time":0,"distance":0}},{"geometry":{"type":"LineString","coordinates":[[126.9798040670195,37.572492901773465],[126.97988739338768,37.57247068363027],[126.97995127684747,37.572456797502596]]},"properties":{"time":10,"distance":14}},{"geometry":{"type":"LineString","coordinates":[[126.97995127684747,37.572456797502596],[126.97996238718198,37.57244846533757],[126.97997627511978,37.572437355767605],[126.97999294050355,37.57242902370226],[126.98000682820536,37.57242624649666],[126.98002627095643,37.572423469390735],[126.98004293610421,37.57242346968976],[126.98005960117332,37.57242624744358],[126.98007904376708,37.572429025247246],[126.98008182113438,37.57243458020666],[126.98009015370826,37.57243458035617],[126.98009570860019,37.57244013536543],[126.98009848604616,37.57244291287006],[126.9801068184627,37.572448467929156],[126.9801123734333,37.57245124548363]]},"properties":{"time":12,"distance":17}},{"geometry":{"type":"LineString","coordinates":[[126.9801123734333,37.57245124548363],[126.98027069288786,37.57243180614088],[126.9803706840892,37.57242069811591],[126.9806123302267,37.57236793081087],[126.98114006297467,37.57225961954354],[126.98123449944151,37.57223740159977]]},"properties":{"time":74,"distance":102}},{"geometry":{"type":"Point","coordinates":[126.98123449944151,37.57223740159977]},"properties":{"time":0,"distance":0}},{"geometry":{"type":"LineString","coordinates":[[126.98123449944151,37.57223740159977],[126.98122061354904,37.57217629734512],[126.98120117205663,37.57213463517434],[126.98117062054435,37.57209019534942],[126.98108174321744,37.57196798574363]]},"properties":{"time":4,"distance":33}},{"geometry":{"type":"Point","coordinates":[126.98108174321744,37.57196798574363]},"properties":{"time":0,"distance":0}}]},{"id":"route_003","vehicleId":"vehicle_003","demandId":"test_003","type":"to_demand","startTime":26100,"endTime":26307,"duration":207,"distance":435,"startLocation":[126.985,37.565],"endLocation":[126.986,37.566],"geometry":{"type":"LineString","coordinates":[[126.98485937669054,37.564907763401926],[126.98486493362749,37.56484110458583],[126.98491771052869,37.564702232791554],[126.98491771052869,37.564702232791554],[126.98478716765597,37.56467445590084],[126.98478716765597,37.56467445590084],[126.98494272036284,37.56427450519695],[126.9851066044639,37.563916216464754],[126.98513160368023,37.56386344527157],[126.98513160368023,37.56386344527157],[126.9853676924905,37.56389122405622],[126.98589819561228,37.56403566122685],[126.98609817581536,37.564091213912015],[126.98609817581536,37.564091213912015],[126.98605928700927,37.564213421226675],[126.98602039946162,37.56429118926407],[126.98598151230726,37.56435507002732],[126.98584818522423,37.56456337674693],[126.98582040856179,37.56461337043539],[126.98580929696871,37.56466614187773],[126.98580929500235,37.564735578248374],[126.9858898345656,37.565041099724574],[126.98589816572378,37.565091094060946],[126.98590649585942,37.56517719531003],[126.98590371408731,37.56532717782068],[126.98588425300866,37.56597710190024]]},"features":[{"geometry":{"type":"Point","coordinates":[126.98485937669054,37.564907763401926]},"properties":{"time":0,"distance":0}},{"geometry":{"type":"LineString","coordinates":[[126.98485937669054,37.564907763401926],[126.98486493362749,37.56484110458583],[126.98491771052869,37.564702232791554]]},"properties":{"time":3,"distance":24}},{"geometry":{"type":"Point","coordinates":[126.98491771052869,37.564702232791554]},"properties":{"time":0,"distance":0}},{"geometry":{"type":"LineString","coordinates":[[126.98491771052869,37.564702232791554],[126.98478716765597,37.56467445590084]]},"properties":{"time":1,"distance":11}},{"geometry":{"type":"Point","coordinates":[126.98478716765597,37.56467445590084]},"properties":{"time":0,"distance":0}},{"geometry":{"type":"LineString","coordinates":[[126.98478716765597,37.56467445590084],[126.98494272036284,37.56427450519695],[126.9851066044639,37.563916216464754],[126.98513160368023,37.56386344527157]]},"properties":{"time":11,"distance":96}},{"geometry":{"type":"Point","coordinates":[126.98513160368023,37.56386344527157]},"properties":{"time":0,"distance":0}},{"geometry":{"type":"LineString","coordinates":[[126.98513160368023,37.56386344527157],[126.9853676924905,37.56389122405622],[126.98589819561228,37.56403566122685],[126.98609817581536,37.564091213912015]]},"properties":{"time":116,"distance":89}},{"geometry":{"type":"Point","coordinates":[126.98609817581536,37.564091213912015]},"properties":{"time":0,"distance":0}},{"geometry":{"type":"LineString","coordinates":[[126.98609817581536,37.564091213912015],[126.98605928700927,37.564213421226675],[126.98602039946162,37.56429118926407],[126.98598151230726,37.56435507002732],[126.98584818522423,37.56456337674693],[126.98582040856179,37.56461337043539],[126.98580929696871,37.56466614187773],[126.98580929500235,37.564735578248374],[126.9858898345656,37.565041099724574],[126.98589816572378,37.565091094060946],[126.98590649585942,37.56517719531003],[126.98590371408731,37.56532717782068],[126.98588425300866,37.56597710190024]]},"properties":{"time":76,"distance":215}},{"geometry":{"type":"Point","coordinates":[126.98588425300866,37.56597710190024]},"properties":{"time":0,"distance":0}}]},{"id":"route_004","vehicleId":"vehicle_001","demandId":"test_004","type":"to_demand","startTime":26400,"endTime":26706,"duration":306,"distance":709,"startLocation":[126.979,37.568],"endLocation":[126.982,37.569],"geometry":{"type":"LineString","coordinates":[[126.97899315331328,37.56813228318931],[126.97923202051118,37.56812951002],[126.97923202051118,37.56812951002],[126.97924034718667,37.5683378192799],[126.97924589452859,37.5686100099504],[126.97925143935363,37.56897107917449],[126.97925699220075,37.56904884800863],[126.97926809828819,37.56919049840286],[126.97927087368929,37.56926548973234],[126.97928752735412,37.56967099843226],[126.97929585450106,37.56986264296294],[126.97930140719075,37.56994596670658],[126.97931251280609,37.570104281829444],[126.97931251280609,37.570104281829444],[126.97943750141471,37.570104284071974],[126.9796874787893,37.57009873364748],[126.97991245836354,37.57009596022932],[126.98122900496344,37.57009876130667],[126.98182617260372,37.57010432693158],[126.98230390676329,37.57010711295883],[126.98230390676329,37.57010711295883],[126.98246778197577,37.57006267662259],[126.9825483310557,37.57003212606515],[126.98263721310286,37.569987688383215],[126.98270943078883,37.5699154758542],[126.98277053861223,37.56983493076142],[126.98282053617974,37.56975994037885],[126.98274833107982,37.569387760139215],[126.98268168039968,37.56903779963754],[126.98268168039968,37.56903779963754],[126.98199840807845,37.56908222665398]]},"features":[{"geometry":{"type":"Point","coordinates":[126.97899315331328,37.56813228318931]},"properties":{"time":0,"distance":0}},{"geometry":{"type":"LineString","coordinates":[[126.97899315331328,37.56813228318931],[126.97923202051118,37.56812951002]]},"properties":{"time":48,"distance":21}},{"geometry":{"type":"Point","coordinates":[126.97923202051118,37.56812951002]},"properties":{"time":0,"distance":0}},{"geometry":{"type":"LineString","coordinates":[[126.97923202051118,37.56812951002],[126.97924034718667,37.5683378192799],[126.97924589452859,37.5686100099504],[126.97925143935363,37.56897107917449],[126.97925699220075,37.56904884800863],[126.97926809828819,37.56919049840286],[126.97927087368929,37.56926548973234],[126.97928752735412,37.56967099843226],[126.97929585450106,37.56986264296294],[126.97930140719075,37.56994596670658],[126.97931251280609,37.570104281829444]]},"properties":{"time":198,"distance":219}},{"geometry":{"type":"Point","coordinates":[126.97931251280609,37.570104281829444]},"properties":{"time":0,"distance":0}},{"geometry":{"type":"LineString","coordinates":[[126.97931251280609,37.570104281829444],[126.97943750141471,37.570104284071974],[126.9796874787893,37.57009873364748],[126.97991245836354,37.57009596022932],[126.98122900496344,37.57009876130667],[126.98182617260372,37.57010432693158],[126.98230390676329,37.57010711295883]]},"properties":{"time":28,"distance":265}},{"geometry":{"type":"Point","coordinates":[126.98230390676329,37.57010711295883]},"properties":{"time":0,"distance":0}},{"geometry":{"type":"LineString","coordinates":[[126.98230390676329,37.57010711295883],[126.98246778197577,37.57006267662259],[126.9825483310557,37.57003212606515],[126.98263721310286,37.569987688383215],[126.98270943078883,37.5699154758542],[126.98277053861223,37.56983493076142],[126.98282053617974,37.56975994037885],[126.98274833107982,37.569387760139215],[126.98268168039968,37.56903779963754]]},"properties":{"time":20,"distance":143}},{"geometry":{"type":"Point","coordinates":[126.98268168039968,37.56903779963754]},"properties":{"time":0,"distance":0}},{"geometry":{"type":"LineString","coordinates":[[126.98268168039968,37.56903779963754],[126.98199840807845,37.56908222665398]]},"properties":{"time":12,"distance":61}},{"geometry":{"type":"Point","coordinates":[126.98199840807845,37.56908222665398]},"properties":{"time":0,"distance":0}}]}],"demands":[{"id":"test_001","timestamp":25500,"requestTime":"07:05","location":[126.979,37.568],"address":"서울특별시 종로구 삼일대로","job_type":"call","status":"completed","assignedVehicle":"vehicle_001","dispatchInfo":{"dispatchTime":25500,"waitTime":0,"waitTimeLimit":10,"candidateVehicles":["vehicle_001"],"selectedReason":"closest_distance","distanceToVehicle":0.18864754059150934},"timeline":{"requested":25500,"dispatched":25500,"arrived":25596,"workStarted":25596,"workCompleted":26196},"metrics":{"waitTime":96,"serviceTime":600,"totalTime":696}},{"id":"test_002","timestamp":25800,"requestTime":"07:10","location":[126.981,37.572],"address":"서울특별시 종로구 종로","job_type":"call","status":"completed","assignedVehicle":"vehicle_002","dispatchInfo":{"dispatchTime":25800,"waitTime":0,"waitTimeLimit":10,"candidateVehicles":["vehicle_002"],"selectedReason":"closest_distance","distanceToVehicle":0.2392167592250218},"timeline":{"requested":25800,"dispatched":25800,"arrived":26302,"workStarted":26302,"workCompleted":26902},"metrics":{"waitTime":502,"serviceTime":600,"totalTime":1102}},{"id":"test_003","timestamp":26100,"requestTime":"07:15","location":[126.986,37.566],"address":"서울특별시 종로구 인사동","job_type":"call","status":"completed","assignedVehicle":"vehicle_003","dispatchInfo":{"dispatchTime":26100,"waitTime":0,"waitTimeLimit":10,"candidateVehicles":["vehicle_003"],"selectedReason":"closest_distance","distanceToVehicle":0.1418903447616059},"timeline":{"requested":26100,"dispatched":26100,"arrived":26307,"workStarted":26307,"workCompleted":26907},"metrics":{"waitTime":207,"serviceTime":600,"totalTime":807}},{"id":"test_004","timestamp":26400,"requestTime":"07:20","location":[126.982,37.569],"address":"서울특별시 종로구 창경궁로","job_type":"call","status":"assigned","assignedVehicle":"vehicle_001","dispatchInfo":{"dispatchTime":26400,"waitTime":0,"waitTimeLimit":10,"candidateVehicles":["vehicle_001"],"selectedReason":"closest_distance","distanceToVehicle":0.28683741772806765},"timeline":{"requested":26400,"dispatched":26400,"arrived":26706,"workStarted":26706,"workCompleted":null},"metrics":{"waitTime":306,"serviceTime":600,"totalTime":null}},{"id":"test_005","timestamp":26700,"requestTime":"07:25","location":[126.987,37.564],"address":"서울특별시 종로구 돈화문로","job_type":"call","status":"rejected","assignedVehicle":null,"dispatchInfo":null,"timeline":{"requested":26700,"dispatched":null,"arrived":null,"workStarted":null,"workCompleted":null},"metrics":{"waitTime":null,"serviceTime":null,"totalTime":null}}],"events":[{"timestamp":25200,"type":"simulation_start","data":{"vehicles":3,"initialIdleVehicles":3,"demands":5}},{"timestamp":25500,"type":"demand_occurred","data":{"demandId":"test_001","location":[126.979,37.568],"job_type":"call"}},{"timestamp":25500,"type":"vehicle_dispatched","data":{"vehicleId":"vehicle_001","demandId":"test_001","routeId":"route_001"}},{"timestamp":25596,"type":"vehicle_arrived","data":{"vehicleId":"vehicle_001","demandId":"test_001"}},{"timestamp":25596,"type":"work_started","data":{"vehicleId":"vehicle_001","demandId":"test_001"}},{"timestamp":25800,"type":"demand_occurred","data":{"demandId":"test_002","location":[126.981,37.572],"job_type":"call"}},{"timestamp":25800,"type":"vehicle_dispatched","data":{"vehicleId":"vehicle_002","demandId":"test_002","routeId":"route_002"}},{"timestamp":26100,"type":"demand_occurred","data":{"demandId":"test_003","location":[126.986,37.566],"job_type":"call"}},{"timestamp":26100,"type":"vehicle_dispatched","data":{"vehicleId":"vehicle_003","demandId":"test_003","routeId":"route_003"}},{"timestamp":26196,"type":"work_completed","data":{"vehicleId":"vehicle_001","demandId":"test_001"}},{"timestamp":26302,"type":"vehicle_arrived","data":{"vehicleId":"vehicle_002","demandId":"test_002"}},{"timestamp":26302,"type":"work_started","data":{"vehicleId":"vehicle_002","demandId":"test_002"}},{"timestamp":26307,"type":"vehicle_arrived","data":{"vehicleId":"vehicle_003","demandId":"test_003"}},{"timestamp":26307,"type":"work_started","data":{"vehicleId":"vehicle_003","demandId":"test_003"}},{"timestamp":26400,"type":"demand_occurred","data":{"demandId":"test_004","location":[126.982,37.569],"job_type":"call"}},{"timestamp":26400,"type":"vehicle_dispatched","data":{"vehicleId":"vehicle_001","demandId":"test_004","routeId":"route_004"}},{"timestamp":26700,"type":"demand_occurred","data":{"demandId":"test_005","location":[126.987,37.564],"job_type":"call"}},{"timestamp":26700,"type":"demand_rejected","data":{"demandId":"test_005","reason":"no_vehicle_available"}},{"timestamp":26706,"type":"vehicle_arrived","data":{"vehicleId":"vehicle_001","demandId":"test_004"}},{"timestamp":26706,"type":"work_started","data":{"vehicleId":"vehicle_001","demandId":"test_004"}},{"timestamp":26902,"type":"work_completed","data":{"vehicleId":"vehicle_002","demandId":"test_002"}},{"timestamp":26907,"type":"work_completed","data":{"vehicleId":"vehicle_003","demandId":"test_003"}},{"timestamp":27001,"type":"simulation_end","data":{"completedDemands":3,"rejectedDemands":1,"totalVehicleJobs":3}}]}